{"type":"FeatureCollection","name":"Hospital_Locations","crs":{"type":"name","properties":{"name":"urn:ogc:def:crs:OGC:1.3:CRS84"}},"features":[{"type":"Feature","properties":{"OBJECTID":1,"CFNAME":"Advocate Christ Medical Center","CFTYPE":"Hospital","CFSUBTYPE":"Hospital","ADDRESS":"9340 S Kostner Ave","GNISCODE":426825,"SOURCE":"CGI","Jurisdiction":null,"Community":"Oak Lawn"},"geometry":{"type":"Point","coordinates":[-87.7324438722923,41.722209692018595]}},{"type":"Feature","properties":{"OBJECTID":2,"CFNAME":"Palos Primary Care Center","CFTYPE":"Hospital","CFSUBTYPE":"Hospital","ADDRESS":"15300 West Ave","GNISCODE":2036658,"SOURCE":"CL","Jurisdiction":null,"Community":"Orland Park"},"geometry":{"type":"Point","coordinates":[-87.86555774421026,41.6105411903083]}},{"type":"Feature","properties":{"OBJECTID":3,"CFNAME":"Oak Forest Hospital","CFTYPE":"Hospital","CFSUBTYPE":"Hospital","ADDRESS":"15901 Cicero Ave","GNISCODE":414760,"SOURCE":"CEGL","Jurisdiction":null,"Community":"Bremen Twp"},"geometry":{"type":"Point","coordinates":[-87.73149140480876,41.59967461946014]}},{"type":"Feature","properties":{"OBJECTID":4,"CFNAME":"Gottlieb Memorial Hospital","CFTYPE":"Hospital","CFSUBTYPE":"Hospital","ADDRESS":"375 W North Ave","GNISCODE":409212,"SOURCE":"BCEG","Jurisdiction":null,"Community":"Melrose Park"},"geometry":{"type":"Point","coordinates":[-87.84347127806677,41.910787243894255]}},{"type":"Feature","properties":{"OBJECTID":5,"CFNAME":"Glenbrook Hospital","CFTYPE":"Hospital","CFSUBTYPE":"Hospital","ADDRESS":"2100 Pfingsten Rd","GNISCODE":2033578,"SOURCE":"CEGI","Jurisdiction":null,"Community":"Glenview"},"geometry":{"type":"Point","coordinates":[-87.85162068345669,42.09263771649802]}},{"type":"Feature","properties":{"OBJECTID":6,"CFNAME":"Cermak Hospital","CFTYPE":"Hospital","CFSUBTYPE":"Hospital","ADDRESS":"2739 S Sacramento Ave","GNISCODE":2673936,"SOURCE":"CEG","Jurisdiction":null,"Community":"Chicago"},"geometry":{"type":"Point","coordinates":[-87.69787151252848,41.84150448256251]}},{"type":"Feature","properties":{"OBJECTID":7,"CFNAME":"Hartgrove Hospital","CFTYPE":"Hospital","CFSUBTYPE":"Hospital","ADDRESS":"5720 W Roosevelt Rd","GNISCODE":1832957,"SOURCE":"C","Jurisdiction":null,"Community":"Chicago"},"geometry":{"type":"Point","coordinates":[-87.7674145606118,41.866522922141286]}},{"type":"Feature","properties":{"OBJECTID":8,"CFNAME":"Sacred Heart Hospital","CFTYPE":"Hospital","CFSUBTYPE":"Hospital","ADDRESS":"3238 W Franklin Blvd","GNISCODE":1826901,"SOURCE":"C","Jurisdiction":null,"Community":"Chicago"},"geometry":{"type":"Point","coordinates":[-87.70823935659331,41.89062801684497]}},{"type":"Feature","properties":{"OBJECTID":9,"CFNAME":"Saint Mary Of Nazareth Hospital","CFTYPE":"Hospital","CFSUBTYPE":"Hospital","ADDRESS":"2233 W Division St","GNISCODE":417534,"SOURCE":"BCG","Jurisdiction":null,"Community":"Chicago"},"geometry":{"type":"Point","coordinates":[-87.68334656258372,41.902156947764915]}},{"type":"Feature","properties":{"OBJECTID":10,"CFNAME":"Saint Elizabeth's Hospital","CFTYPE":"Hospital","CFSUBTYPE":"Hospital","ADDRESS":"1432 N Oakley Blvd","GNISCODE":417267,"SOURCE":"BCGE","Jurisdiction":null,"Community":"Chicago"},"geometry":{"type":"Point","coordinates":[-87.68532791454875,41.907452938374206]}},{"type":"Feature","properties":{"OBJECTID":11,"CFNAME":"Advocate Illinois Masonic Medical Center","CFTYPE":"Hospital","CFSUBTYPE":"Hospital","ADDRESS":"831 W Nelson St","GNISCODE":1830635,"SOURCE":"BCEG","Jurisdiction":null,"Community":"Chicago"},"geometry":{"type":"Point","coordinates":[-87.65163513684786,41.93708466623754]}},{"type":"Feature","properties":{"OBJECTID":12,"CFNAME":"Kindred Chicago Central Hospital","CFTYPE":"Hospital","CFSUBTYPE":"Hospital","ADDRESS":"4058 W Melrose St","GNISCODE":404152,"SOURCE":"CE","Jurisdiction":null,"Community":"Chicago"},"geometry":{"type":"Point","coordinates":[-87.72889819082936,41.9402439874761]}},{"type":"Feature","properties":{"OBJECTID":13,"CFNAME":"Shriners Hospitals for Children","CFTYPE":"Hospital","CFSUBTYPE":"Hospital","ADDRESS":"2211 N Oak Park Ave","GNISCODE":1764375,"SOURCE":"CEG","Jurisdiction":null,"Community":"Chicago"},"geometry":{"type":"Point","coordinates":[-87.7931902619166,41.91999047593308]}},{"type":"Feature","properties":{"OBJECTID":14,"CFNAME":"Holy Cross Hospital","CFTYPE":"Hospital","CFSUBTYPE":"Hospital","ADDRESS":"6801 S California Ave","GNISCODE":410435,"SOURCE":"BCGE","Jurisdiction":null,"Community":"Chicago"},"geometry":{"type":"Point","coordinates":[-87.69221574690627,41.7691270098267]}},{"type":"Feature","properties":{"OBJECTID":15,"CFNAME":"La Rabida Children's Hospital","CFTYPE":"Hospital","CFSUBTYPE":"Hospital","ADDRESS":"6501 S Promontory Dr","GNISCODE":1831256,"SOURCE":"BCGI","Jurisdiction":null,"Community":"Chicago"},"geometry":{"type":"Point","coordinates":[-87.57071261947753,41.777444818460374]}},{"type":"Feature","properties":{"OBJECTID":16,"CFNAME":"Adventist La Grange Memorial Hospital","CFTYPE":"Hospital","CFSUBTYPE":"Hospital","ADDRESS":"5101 WILLOW SPRINGS RD","GNISCODE":1831302,"SOURCE":"BCEGI","Jurisdiction":null,"Community":"La Grange"},"geometry":{"type":"Point","coordinates":[-87.88594052190084,41.7965161416607]}},{"type":"Feature","properties":{"OBJECTID":17,"CFNAME":"Rush Medical Loyola Specialty Hospital","CFTYPE":"Hospital","CFSUBTYPE":"Hospital","ADDRESS":"5601 S COUNTY LINE RD","GNISCODE":1836836,"SOURCE":"CG","Jurisdiction":null,"Community":"Hinsdale"},"geometry":{"type":"Point","coordinates":[-87.91552969856727,41.78628326505609]}},{"type":"Feature","properties":{"OBJECTID":18,"CFNAME":"Mercy Medical Center","CFTYPE":"Hospital","CFSUBTYPE":"Hospital","ADDRESS":"9050 W 81ST ST","GNISCODE":1737227,"SOURCE":"C","Jurisdiction":null,"Community":"Justice"},"geometry":{"type":"Point","coordinates":[-87.84706190363111,41.743784440111625]}},{"type":"Feature","properties":{"OBJECTID":19,"CFNAME":"University of Illinois at Chicago Hospital","CFTYPE":"Hospital","CFSUBTYPE":"Hospital","ADDRESS":"1740 W Taylor Ave","GNISCODE":2662346,"SOURCE":"CEGH","Jurisdiction":null,"Community":"Chicago"},"geometry":{"type":"Point","coordinates":[-87.67163716076172,41.87037286295756]}},{"type":"Feature","properties":{"OBJECTID":20,"CFNAME":"Mercy Hospital and Medical Center","CFTYPE":"Hospital","CFSUBTYPE":"Hospital","ADDRESS":"2525 S Michigan Ave","GNISCODE":413417,"SOURCE":"BCEG","Jurisdiction":null,"Community":"Chicago"},"geometry":{"type":"Point","coordinates":[-87.6218978212396,41.84658440252028]}},{"type":"Feature","properties":{"OBJECTID":21,"CFNAME":"Saint James Hospital","CFTYPE":"Hospital","CFSUBTYPE":"Hospital","ADDRESS":"20201 Crawford Ave","GNISCODE":426793,"SOURCE":"CEGI","Jurisdiction":null,"Community":"Olympia Fields"},"geometry":{"type":"Point","coordinates":[-87.71073898644666,41.52252061761789]}},{"type":"Feature","properties":{"OBJECTID":22,"CFNAME":"Core Center Ruth M. Rothstein","CFTYPE":"Hospital","CFSUBTYPE":"Hospital","ADDRESS":"2030 W Harrison St","GNISCODE":null,"SOURCE":"EG","Jurisdiction":null,"Community":"Chicago"},"geometry":{"type":"Point","coordinates":[-87.6777529190785,41.87448424814363]}},{"type":"Feature","properties":{"OBJECTID":23,"CFNAME":"Jesse Brown Veterans Medical Center","CFTYPE":"Hospital","CFSUBTYPE":"Hospital","ADDRESS":"820 S Damen Ave","GNISCODE":2662362,"SOURCE":"CEGI","Jurisdiction":null,"Community":"Chicago"},"geometry":{"type":"Point","coordinates":[-87.67870644916803,41.86981687141153]}},{"type":"Feature","properties":{"OBJECTID":24,"CFNAME":"University of Illinois at Chicago College of Medicine - School of Public Health West","CFTYPE":"Hospital","CFSUBTYPE":"MedSchool","ADDRESS":"2121 W Taylor St","GNISCODE":null,"SOURCE":"GH","Jurisdiction":null,"Community":"Chicago"},"geometry":{"type":"Point","coordinates":[-87.67924576465822,41.8684839417213]}},{"type":"Feature","properties":{"OBJECTID":25,"CFNAME":"John H Stroger Junior Hospital Cook County","CFTYPE":"Hospital","CFSUBTYPE":"Hospital","ADDRESS":"1901 W Harrison St","GNISCODE":1826093,"SOURCE":"CEG","Jurisdiction":null,"Community":"Chicago"},"geometry":{"type":"Point","coordinates":[-87.67353310910501,41.87295989273708]}},{"type":"Feature","properties":{"OBJECTID":26,"CFNAME":"Mount Sinai Hospital","CFTYPE":"Hospital","CFSUBTYPE":"Hospital","ADDRESS":"1500 S California Ave","GNISCODE":2662326,"SOURCE":"BCEG","Jurisdiction":null,"Community":"Chicago"},"geometry":{"type":"Point","coordinates":[-87.69440534079655,41.86090246821853]}},{"type":"Feature","properties":{"OBJECTID":27,"CFNAME":"Saint Anthony Hospital","CFTYPE":"Hospital","CFSUBTYPE":"Hospital","ADDRESS":"2875 W 19th St","GNISCODE":417172,"SOURCE":"BCEG","Jurisdiction":null,"Community":"Chicago"},"geometry":{"type":"Point","coordinates":[-87.6976106546563,41.855179691451504]}},{"type":"Feature","properties":{"OBJECTID":28,"CFNAME":"Advocate Bethany Hospital","CFTYPE":"Hospital","CFSUBTYPE":"Hospital","ADDRESS":"3435 West Van Buren St","GNISCODE":404257,"SOURCE":"CEG","Jurisdiction":null,"Community":"Chicago"},"geometry":{"type":"Point","coordinates":[-87.7121657226543,41.87542330378888]}},{"type":"Feature","properties":{"OBJECTID":29,"CFNAME":"PCC Austin Family Health Center","CFTYPE":"Hospital","CFSUBTYPE":"Health Center","ADDRESS":"5425 W Lake St","GNISCODE":null,"SOURCE":"G","Jurisdiction":null,"Community":"Chicago"},"geometry":{"type":"Point","coordinates":[-87.76124431703106,41.88698424521402]}},{"type":"Feature","properties":{"OBJECTID":30,"CFNAME":"Erie Family Health Center","CFTYPE":"Hospital","CFSUBTYPE":"Health Center","ADDRESS":"2418 W Division St","GNISCODE":null,"SOURCE":"GI","Jurisdiction":null,"Community":"Chicago"},"geometry":{"type":"Point","coordinates":[-87.6875938685229,41.90351872842233]}},{"type":"Feature","properties":{"OBJECTID":31,"CFNAME":"Norwegian American Hospital Incorporated","CFTYPE":"Hospital","CFSUBTYPE":"Hospital","ADDRESS":"1052 N Mozart St","GNISCODE":1831552,"SOURCE":"BCEG","Jurisdiction":null,"Community":"Chicago"},"geometry":{"type":"Point","coordinates":[-87.69952921526082,41.9007841885728]}},{"type":"Feature","properties":{"OBJECTID":32,"CFNAME":"Loretto Hospital ","CFTYPE":"Hospital","CFSUBTYPE":"Hospital","ADDRESS":"645 S Central Ave","GNISCODE":2662328,"SOURCE":"CEG","Jurisdiction":null,"Community":"Chicago"},"geometry":{"type":"Point","coordinates":[-87.76356447839835,41.87200660115559]}},{"type":"Feature","properties":{"OBJECTID":33,"CFNAME":"Chicago Kindred Hospital Northlake","CFTYPE":"Hospital","CFSUBTYPE":"Hospital","ADDRESS":"365 E North Ave","GNISCODE":2662337,"SOURCE":"CE","Jurisdiction":null,"Community":"Northlake"},"geometry":{"type":"Point","coordinates":[-87.89037868976266,41.90679787115296]}},{"type":"Feature","properties":{"OBJECTID":34,"CFNAME":"Englewood Health Center","CFTYPE":"Hospital","CFSUBTYPE":"Health Center","ADDRESS":"641 W 63rd St ","GNISCODE":null,"SOURCE":"GI","Jurisdiction":null,"Community":"Chicago"},"geometry":{"type":"Point","coordinates":[-87.64181451160837,41.77942008912301]}},{"type":"Feature","properties":{"OBJECTID":35,"CFNAME":"Saint Bernard Hospital","CFTYPE":"Hospital","CFSUBTYPE":"Hospital","ADDRESS":"326 W 64th St","GNISCODE":2662320,"SOURCE":"BCEG","Jurisdiction":null,"Community":"Chicago"},"geometry":{"type":"Point","coordinates":[-87.63290003125462,41.778773244574495]}},{"type":"Feature","properties":{"OBJECTID":36,"CFNAME":"Englewood Health Center","CFTYPE":"Hospital","CFSUBTYPE":"Health Center","ADDRESS":"1135 W 69th St","GNISCODE":null,"SOURCE":"EG","Jurisdiction":null,"Community":"Chicago"},"geometry":{"type":"Point","coordinates":[-87.65304262066157,41.768469242236364]}},{"type":"Feature","properties":{"OBJECTID":37,"CFNAME":"Jackson Park Hospital and Medical Center","CFTYPE":"Hospital","CFSUBTYPE":"Hospital","ADDRESS":"7531 S Stony Island Ave","GNISCODE":411002,"SOURCE":"BCEG","Jurisdiction":null,"Community":"Chicago"},"geometry":{"type":"Point","coordinates":[-87.58510161524939,41.75779456904757]}},{"type":"Feature","properties":{"OBJECTID":38,"CFNAME":"South Shore Hospital","CFTYPE":"Hospital","CFSUBTYPE":"Hospital","ADDRESS":"8012 S Crandon Ave","GNISCODE":418835,"SOURCE":"BCEG","Jurisdiction":null,"Community":"Chicago"},"geometry":{"type":"Point","coordinates":[-87.56918961396957,41.74908678366114]}},{"type":"Feature","properties":{"OBJECTID":39,"CFNAME":"Roseland Community Hospital","CFTYPE":"Hospital","CFSUBTYPE":"Hospital","ADDRESS":"45 W 111th St","GNISCODE":426653,"SOURCE":"BCEG","Jurisdiction":null,"Community":"Chicago"},"geometry":{"type":"Point","coordinates":[-87.62546960579571,41.69229971478466]}},{"type":"Feature","properties":{"OBJECTID":40,"CFNAME":"Saint Francis Hospital Metro South Medical Center","CFTYPE":"Hospital","CFSUBTYPE":"Hospital","ADDRESS":"12935 Gregory St","GNISCODE":426914,"SOURCE":"CEGL","Jurisdiction":null,"Community":"Blue Island"},"geometry":{"type":"Point","coordinates":[-87.67745914979632,41.65818970798722]}},{"type":"Feature","properties":{"OBJECTID":41,"CFNAME":"University of Chicago Medical Center","CFTYPE":"Hospital","CFSUBTYPE":"Hospital","ADDRESS":"5841 S Maryland Ave","GNISCODE":2662357,"SOURCE":"BCEG","Jurisdiction":null,"Community":"Chicago"},"geometry":{"type":"Point","coordinates":[-87.6036625758783,41.788637535441744]}},{"type":"Feature","properties":{"OBJECTID":42,"CFNAME":"Provident Hospital of Cook County","CFTYPE":"Hospital","CFSUBTYPE":"Hospital","ADDRESS":"500 E 51St St","GNISCODE":416264,"SOURCE":"CEG","Jurisdiction":null,"Community":"Chicago"},"geometry":{"type":"Point","coordinates":[-87.61361008433005,41.80287498739598]}},{"type":"Feature","properties":{"OBJECTID":43,"CFNAME":"Near South Health Center","CFTYPE":"Hospital","CFSUBTYPE":"Health Center","ADDRESS":"3525 S Michigan Ave","GNISCODE":null,"SOURCE":"EG","Jurisdiction":null,"Community":"Chicago"},"geometry":{"type":"Point","coordinates":[-87.62282030190148,41.83023937286712]}},{"type":"Feature","properties":{"OBJECTID":44,"CFNAME":"Rush University Medical Center","CFTYPE":"Hospital","CFSUBTYPE":"Hospital","ADDRESS":"1653 W Congress Pkwy","GNISCODE":2662344,"SOURCE":"ABCEG","Jurisdiction":null,"Community":"Chicago"},"geometry":{"type":"Point","coordinates":[-87.66918242438379,41.8735374230069]}},{"type":"Feature","properties":{"OBJECTID":45,"CFNAME":"Pilsen Community Health Center","CFTYPE":"Hospital","CFSUBTYPE":"Health Center","ADDRESS":"1707 S Ashland Ave","GNISCODE":null,"SOURCE":"GI","Jurisdiction":null,"Community":"Chicago"},"geometry":{"type":"Point","coordinates":[-87.66569273465484,41.85835196501669]}},{"type":"Feature","properties":{"OBJECTID":46,"CFNAME":"Little Company of Mary Hospital and Health Care Center","CFTYPE":"Hospital","CFSUBTYPE":"Hospital","ADDRESS":"2800 W 95th St","GNISCODE":426839,"SOURCE":"BCEGI","Jurisdiction":null,"Community":"Evergreen Park"},"geometry":{"type":"Point","coordinates":[-87.69314896995868,41.72196560327923]}},{"type":"Feature","properties":{"OBJECTID":47,"CFNAME":"Edward Hines Junior Veterans Affairs Hospital","CFTYPE":"Hospital","CFSUBTYPE":"Hospital","ADDRESS":"2100 5th Ave","GNISCODE":1832991,"SOURCE":"CG","Jurisdiction":null,"Community":"Proviso Twp"},"geometry":{"type":"Point","coordinates":[-87.83923909949294,41.85765923987598]}},{"type":"Feature","properties":{"OBJECTID":48,"CFNAME":"Loyola Medical Center","CFTYPE":"Hospital","CFSUBTYPE":"Hospital","ADDRESS":"2160 1st Ave","GNISCODE":2026474,"SOURCE":"BCEG","Jurisdiction":null,"Community":"Proviso Twp"},"geometry":{"type":"Point","coordinates":[-87.83519485708212,41.85812668684569]}},{"type":"Feature","properties":{"OBJECTID":49,"CFNAME":"River Edge Hospital","CFTYPE":"Hospital","CFSUBTYPE":"Hospital","ADDRESS":"8311 W Roosevelt Rd","GNISCODE":1832867,"SOURCE":"CE","Jurisdiction":null,"Community":"Forest Park"},"geometry":{"type":"Point","coordinates":[-87.82827587329804,41.865356700346915]}},{"type":"Feature","properties":{"OBJECTID":50,"CFNAME":"Rush Oak Park Hospital","CFTYPE":"Hospital","CFSUBTYPE":"Hospital","ADDRESS":"520 S Maple Ave","GNISCODE":414843,"SOURCE":"BCEG","Jurisdiction":null,"Community":"Oak Park"},"geometry":{"type":"Point","coordinates":[-87.80280155075599,41.87882760724758]}},{"type":"Feature","properties":{"OBJECTID":51,"CFNAME":"Thorek Hospital and Medical Center","CFTYPE":"Hospital","CFSUBTYPE":"Hospital","ADDRESS":"850 W Irving Park Rd","GNISCODE":1836922,"SOURCE":"CEG","Jurisdiction":null,"Community":"Chicago"},"geometry":{"type":"Point","coordinates":[-87.65249145516137,41.95499488255158]}},{"type":"Feature","properties":{"OBJECTID":52,"CFNAME":"Bethany Hospital","CFTYPE":"Hospital","CFSUBTYPE":"Hospital","ADDRESS":"5025 N Paulina St","GNISCODE":404258,"SOURCE":"CEG","Jurisdiction":null,"Community":"Chicago"},"geometry":{"type":"Point","coordinates":[-87.67029550667523,41.97273196449861]}},{"type":"Feature","properties":{"OBJECTID":53,"CFNAME":"Swedish Covenant Hospital","CFTYPE":"Hospital","CFSUBTYPE":"Hospital","ADDRESS":"5145 N California Ave","GNISCODE":1836858,"SOURCE":"BCG","Jurisdiction":null,"Community":"Chicago"},"geometry":{"type":"Point","coordinates":[-87.69943318628115,41.974993746340346]}},{"type":"Feature","properties":{"OBJECTID":54,"CFNAME":"West Suburban Hospital","CFTYPE":"Hospital","CFSUBTYPE":"Hospital","ADDRESS":"3 Erie Ct","GNISCODE":1772679,"SOURCE":"BCEG","Jurisdiction":null,"Community":"Oak Park"},"geometry":{"type":"Point","coordinates":[-87.77629756310299,41.891209140926826]}},{"type":"Feature","properties":{"OBJECTID":55,"CFNAME":"Westlake Community Hospital","CFTYPE":"Hospital","CFSUBTYPE":"Hospital","ADDRESS":"1225 W Lake St","GNISCODE":1837200,"SOURCE":"CEGI","Jurisdiction":null,"Community":"Melrose Park"},"geometry":{"type":"Point","coordinates":[-87.84932277985438,41.89282225846615]}},{"type":"Feature","properties":{"OBJECTID":56,"CFNAME":"Alexian Brothers Medical Center","CFTYPE":"Hospital","CFSUBTYPE":"Hospital","ADDRESS":"800 Biesterfield Rd","GNISCODE":1825706,"SOURCE":"BCEGI","Jurisdiction":null,"Community":"Elk Grove Village"},"geometry":{"type":"Point","coordinates":[-88.016214343028,42.004899852004975]}},{"type":"Feature","properties":{"OBJECTID":57,"CFNAME":"Skokie Hospital","CFTYPE":"Hospital","CFSUBTYPE":"Hospital","ADDRESS":"9701 Knox Ave","GNISCODE":418585,"SOURCE":"BCGEI","Jurisdiction":null,"Community":"Skokie"},"geometry":{"type":"Point","coordinates":[-87.74147528907791,42.05669581181412]}},{"type":"Feature","properties":{"OBJECTID":58,"CFNAME":"Saint Francis Hospital Of Evanston","CFTYPE":"Hospital","CFSUBTYPE":"Hospital","ADDRESS":"800 Austin St","GNISCODE":417285,"SOURCE":"BCEGI","Jurisdiction":null,"Community":"Evanston"},"geometry":{"type":"Point","coordinates":[-87.68345591224903,42.02451543674391]}},{"type":"Feature","properties":{"OBJECTID":59,"CFNAME":"Evanston Hospital","CFTYPE":"Hospital","CFSUBTYPE":"Hospital","ADDRESS":"2650 Ridge Ave","GNISCODE":408103,"SOURCE":"CEG","Jurisdiction":null,"Community":"Evanston"},"geometry":{"type":"Point","coordinates":[-87.68431853507491,42.06586765584818]}},{"type":"Feature","properties":{"OBJECTID":60,"CFNAME":"Lutheran General Hospital","CFTYPE":"Hospital","CFSUBTYPE":"Hospital","ADDRESS":"1999 Dempster St","GNISCODE":2662324,"SOURCE":"CEGI","Jurisdiction":null,"Community":"Park Ridge"},"geometry":{"type":"Point","coordinates":[-87.84848410333566,42.03843799133523]}},{"type":"Feature","properties":{"OBJECTID":61,"CFNAME":"Holy Family Medical Center","CFTYPE":"Hospital","CFSUBTYPE":"Hospital","ADDRESS":"150 N Des Plaines River Rd","GNISCODE":410441,"SOURCE":"BCEGI","Jurisdiction":null,"Community":"Des Plaines"},"geometry":{"type":"Point","coordinates":[-87.89124980036176,42.05580994534359]}},{"type":"Feature","properties":{"OBJECTID":62,"CFNAME":"Northwest Community Hospital","CFTYPE":"Hospital","CFSUBTYPE":"Hospital","ADDRESS":"901 W Kirchhoff Rd","GNISCODE":414704,"SOURCE":"BCEGI","Jurisdiction":null,"Community":"Arlington Heights"},"geometry":{"type":"Point","coordinates":[-87.99292073507034,42.06828934504194]}},{"type":"Feature","properties":{"OBJECTID":63,"CFNAME":"Saint Alexius Medical Center","CFTYPE":"Hospital","CFSUBTYPE":"Hospital","ADDRESS":"1555 N Barrington Rd","GNISCODE":2033579,"SOURCE":"BCEGI","Jurisdiction":null,"Community":"Hoffman Estates"},"geometry":{"type":"Point","coordinates":[-88.14159909645046,42.05431705959902]}},{"type":"Feature","properties":{"OBJECTID":64,"CFNAME":"Northwestern University Rehabilitation Institute of Chicago","CFTYPE":"Hospital","CFSUBTYPE":"Hospital","ADDRESS":"345 E Superior St","GNISCODE":1832823,"SOURCE":"BCEG","Jurisdiction":null,"Community":"Chicago"},"geometry":{"type":"Point","coordinates":[-87.61864366087121,41.895868938337095]}},{"type":"Feature","properties":{"OBJECTID":65,"CFNAME":"Northwestern Memorial Hospital","CFTYPE":"Hospital","CFSUBTYPE":"Hospital","ADDRESS":"201 E Huron St","GNISCODE":1831546,"SOURCE":"BCEG","Jurisdiction":null,"Community":"Chicago"},"geometry":{"type":"Point","coordinates":[-87.62226640687446,41.894579870123835]}},{"type":"Feature","properties":{"OBJECTID":66,"CFNAME":"Ann & Robert H. Lurie Children's Memorial Hospital","CFTYPE":"Hospital","CFSUBTYPE":"Hospital","ADDRESS":"225 E Chicago Ave","GNISCODE":null,"SOURCE":"E","Jurisdiction":null,"Community":"Chicago"},"geometry":{"type":"Point","coordinates":[-87.62190452065187,41.896229420501285]}},{"type":"Feature","properties":{"OBJECTID":67,"CFNAME":"Saint Joseph Hospital","CFTYPE":"Hospital","CFSUBTYPE":"Hospital","ADDRESS":"2900 N Lake Shore Dr","GNISCODE":2662359,"SOURCE":"BCEG","Jurisdiction":null,"Community":"Chicago"},"geometry":{"type":"Point","coordinates":[-87.63738877388364,41.93444990766795]}},{"type":"Feature","properties":{"OBJECTID":68,"CFNAME":"Childrens Memorial Hospital","CFTYPE":"Hospital","CFSUBTYPE":"Hospital","ADDRESS":"2300 N Childrens Plz","GNISCODE":1826608,"SOURCE":"BCG","Jurisdiction":null,"Community":"Chicago"},"geometry":{"type":"Point","coordinates":[-87.64737641852534,41.924732246906544]}},{"type":"Feature","properties":{"OBJECTID":69,"CFNAME":"Our Lady of Resurrection Medical Center","CFTYPE":"Hospital","CFSUBTYPE":"Hospital","ADDRESS":"5645 W Addison St","GNISCODE":2662354,"SOURCE":"BCEG","Jurisdiction":null,"Community":"Chicago"},"geometry":{"type":"Point","coordinates":[-87.76796190323807,41.945419466007245]}},{"type":"Feature","properties":{"OBJECTID":70,"CFNAME":"Saint James Hospital and Health Center","CFTYPE":"Hospital","CFSUBTYPE":"Hospital","ADDRESS":"1423 Chicago Rd","GNISCODE":426736,"SOURCE":"CEGIL","Jurisdiction":null,"Community":"Chicago Heights"},"geometry":{"type":"Point","coordinates":[-87.63927116284256,41.50518050093598]}},{"type":"Feature","properties":{"OBJECTID":71,"CFNAME":"Kindred-Lakeshore Hospital","CFTYPE":"Hospital","CFSUBTYPE":"Hospital","ADDRESS":"6130 N Sheridan Rd","GNISCODE":null,"SOURCE":"E","Jurisdiction":null,"Community":"Chicago"},"geometry":{"type":"Point","coordinates":[-87.65609761166505,41.993592198212305]}},{"type":"Feature","properties":{"OBJECTID":72,"CFNAME":"Trinity Hospital","CFTYPE":"Hospital","CFSUBTYPE":"Hospital","ADDRESS":"2320 E 93rd St","GNISCODE":418737,"SOURCE":"CEG","Jurisdiction":null,"Community":"Chicago"},"geometry":{"type":"Point","coordinates":[-87.56700354192732,41.72669629283853]}},{"type":"Feature","properties":{"OBJECTID":73,"CFNAME":"Louis A Weiss Memorial Hospital","CFTYPE":"Hospital","CFSUBTYPE":"Hospital","ADDRESS":"4640 N Marine Dr","GNISCODE":420716,"SOURCE":"CE","Jurisdiction":null,"Community":"Chicago"},"geometry":{"type":"Point","coordinates":[-87.64950909087689,41.966637503834015]}},{"type":"Feature","properties":{"OBJECTID":74,"CFNAME":"Resurrection Medical Center","CFTYPE":"Hospital","CFSUBTYPE":"Hospital","ADDRESS":"5901 N Oriole Ave","GNISCODE":416556,"SOURCE":"BCEG","Jurisdiction":null,"Community":"Chicago"},"geometry":{"type":"Point","coordinates":[-87.81463567381722,41.987823477719864]}},{"type":"Feature","properties":{"OBJECTID":75,"CFNAME":"Advocate South Suburban Hospital","CFTYPE":"Hospital","CFSUBTYPE":"Hospital","ADDRESS":"17800 Kedzie Ave","GNISCODE":426773,"SOURCE":"CEG","Jurisdiction":null,"Community":"Hazel Crest"},"geometry":{"type":"Point","coordinates":[-87.69809304733893,41.56622835654632]}},{"type":"Feature","properties":{"OBJECTID":76,"CFNAME":"Ingalls Memorial Hospital","CFTYPE":"Hospital","CFSUBTYPE":"Hospital","ADDRESS":"1 Ingalls Dr","GNISCODE":410890,"SOURCE":"BCEGL","Jurisdiction":null,"Community":"Harvey"},"geometry":{"type":"Point","coordinates":[-87.65939424051078,41.607180263819835]}},{"type":"Feature","properties":{"OBJECTID":77,"CFNAME":"Palos Community Hospital","CFTYPE":"Hospital","CFSUBTYPE":"Hospital","ADDRESS":"12251 S 80th Ave","GNISCODE":414079,"SOURCE":"BCEGL","Jurisdiction":null,"Community":"Palos Park"},"geometry":{"type":"Point","coordinates":[-87.81303887756458,41.66928619994102]}},{"type":"Feature","properties":{"OBJECTID":78,"CFNAME":"Advocate Good Shepherd Hospital ","CFTYPE":"Hospital","CFSUBTYPE":"Hospital","ADDRESS":"450 West Highway 22","GNISCODE":null,"SOURCE":"E","Jurisdiction":null,"Community":"Barrington"},"geometry":{"type":"Point","coordinates":[-88.17402308653585,42.19536688964239]}},{"type":"Feature","properties":{"OBJECTID":79,"CFNAME":"Advocate Sherman Hospital","CFTYPE":"Hospital","CFSUBTYPE":"Hospital","ADDRESS":"1425 North Randall Road","GNISCODE":null,"SOURCE":"E","Jurisdiction":null,"Community":"Elgin"},"geometry":{"type":"Point","coordinates":[-88.33057484355409,42.07004611394113]}},{"type":"Feature","properties":{"OBJECTID":80,"CFNAME":"Presence Saint Joseph Hospital","CFTYPE":"Hospital","CFSUBTYPE":"Hospital","ADDRESS":"77 N  Airlite Street","GNISCODE":null,"SOURCE":"E","Jurisdiction":null,"Community":"Elgin"},"geometry":{"type":"Point","coordinates":[-88.32660617496487,42.035451813158936]}},{"type":"Feature","properties":{"OBJECTID":81,"CFNAME":"Elmhurst Memorial Hospital ","CFTYPE":"Hospital","CFSUBTYPE":"Hospital","ADDRESS":"155 E Brush Hill Road","GNISCODE":null,"SOURCE":"E","Jurisdiction":null,"Community":"Elmhurst"},"geometry":{"type":"Point","coordinates":[-87.93579159191954,41.86401517363741]}},{"type":"Feature","properties":{"OBJECTID":82,"CFNAME":"Advocate Good Samaritan Hospital ","CFTYPE":"Hospital","CFSUBTYPE":"Hospital","ADDRESS":"3815 Highland Ave","GNISCODE":null,"SOURCE":"E","Jurisdiction":null,"Community":"Downers Grove"},"geometry":{"type":"Point","coordinates":[-88.00795344603408,41.81915643990054]}},{"type":"Feature","properties":{"OBJECTID":83,"CFNAME":"Adventist Hinsdale Hospital ","CFTYPE":"Hospital","CFSUBTYPE":"Hospital","ADDRESS":"120 N Oak Street","GNISCODE":null,"SOURCE":"E","Jurisdiction":null,"Community":"Hinsdale"},"geometry":{"type":"Point","coordinates":[-87.92067240140818,41.805637409790315]}},{"type":"Feature","properties":{"OBJECTID":84,"CFNAME":"Adventist Bolingbrook Hospital","CFTYPE":"Hospital","CFSUBTYPE":"Hospital","ADDRESS":"500 Remington Blvd","GNISCODE":null,"SOURCE":"E","Jurisdiction":null,"Community":"Bolingbrook"},"geometry":{"type":"Point","coordinates":[-88.08458799917588,41.68150658513959]}},{"type":"Feature","properties":{"OBJECTID":85,"CFNAME":"Silver Cross Hospital ","CFTYPE":"Hospital","CFSUBTYPE":"Hospital","ADDRESS":"1900 Silver Cross Blvd","GNISCODE":null,"SOURCE":"E","Jurisdiction":null,"Community":"New Lenox"},"geometry":{"type":"Point","coordinates":[-87.98350801819362,41.544744187152986]}},{"type":"Feature","properties":{"OBJECTID":86,"CFNAME":"Franciscan St Margaret Health","CFTYPE":"Hospital","CFSUBTYPE":"Hospital","ADDRESS":"24 Joliet St","GNISCODE":null,"SOURCE":"E","Jurisdiction":null,"Community":"Dyer"},"geometry":{"type":"Point","coordinates":[-87.5261726953539,41.492033391903426]}},{"type":"Feature","properties":{"OBJECTID":87,"CFNAME":"Franciscan Healthcare","CFTYPE":"Hospital","CFSUBTYPE":"Hospital","ADDRESS":"701 Superior Ave","GNISCODE":null,"SOURCE":"E","Jurisdiction":null,"Community":"Munster"},"geometry":{"type":"Point","coordinates":[-87.512354660874,41.53825533019565]}},{"type":"Feature","properties":{"OBJECTID":88,"CFNAME":"Community Hospital","CFTYPE":"Hospital","CFSUBTYPE":"Hospital","ADDRESS":"901 MACARTHUR BLVD","GNISCODE":null,"SOURCE":"E","Jurisdiction":null,"Community":"Munster"},"geometry":{"type":"Point","coordinates":[-87.50673198997409,41.550600353942016]}},{"type":"Feature","properties":{"OBJECTID":89,"CFNAME":"St Catherine Hospital","CFTYPE":"Hospital","CFSUBTYPE":"Hospital","ADDRESS":"4321 Fir St","GNISCODE":null,"SOURCE":"E","Jurisdiction":null,"Community":"East Chicago"},"geometry":{"type":"Point","coordinates":[-87.4486636503096,41.63503511349092]}},{"type":"Feature","properties":{"OBJECTID":90,"CFNAME":"Franciscan St Margaret Health","CFTYPE":"Hospital","CFSUBTYPE":"Hospital","ADDRESS":"5454 Hohman Ave","GNISCODE":null,"SOURCE":"E","Jurisdiction":null,"Community":"Hammond"},"geometry":{"type":"Point","coordinates":[-87.52359031575644,41.61488588500898]}},{"type":"Feature","properties":{"OBJECTID":91,"CFNAME":"Adventist GlenOaks Hospital","CFTYPE":"Hospital","CFSUBTYPE":"Hospital","ADDRESS":"701 Winthrop Ave","GNISCODE":null,"SOURCE":"E","Jurisdiction":null,"Community":"Glendale Heights"},"geometry":{"type":"Point","coordinates":[-88.05716108056342,41.914884990823644]}},{"type":"Feature","properties":{"OBJECTID":92,"CFNAME":"NorthShore University HealthSystem Highland Park Hospital ","CFTYPE":"Hospital","CFSUBTYPE":"Hospital","ADDRESS":"777 Park Avenue West","GNISCODE":null,"SOURCE":"E","Jurisdiction":null,"Community":"Highland Park"},"geometry":{"type":"Point","coordinates":[-87.80762645312876,42.190574297543925]}},{"type":"Feature","properties":{"OBJECTID":93,"CFNAME":"MacNeal Hospital","CFTYPE":"Hospital","CFSUBTYPE":"Hospital","ADDRESS":"3249 Oak Park Ave","GNISCODE":412787,"SOURCE":"CEG","Jurisdiction":null,"Community":"Berwyn"},"geometry":{"type":"Point","coordinates":[-87.79215867032529,41.83194336510827]}},{"type":"Feature","properties":{"OBJECTID":94,"CFNAME":"Kindred Hospital Chicago- North","CFTYPE":"Hospital","CFSUBTYPE":"Hospital","ADDRESS":"2544 W Montrose Ave","GNISCODE":null,"SOURCE":null,"Jurisdiction":null,"Community":"Chicago"},"geometry":{"type":"Point","coordinates":[-87.69297761176682,41.96155523536752]}},{"type":"Feature","properties":{"OBJECTID":95,"CFNAME":"Chicago Lakeshore Hospital (Behavioral Health)","CFTYPE":"Hospital","CFSUBTYPE":"Hospital","ADDRESS":"4840 N Marine Dr","GNISCODE":420716,"SOURCE":"Webstie","Jurisdiction":null,"Community":"Chicago"},"geometry":{"type":"Point","coordinates":[-87.65056878794122,41.97032895995235]}},{"type":"Feature","properties":{"OBJECTID":96,"CFNAME":"Orr Adolescent Health Center","CFTYPE":"Hospital","CFSUBTYPE":"Health Center","ADDRESS":"730 N Pulaski Rd","GNISCODE":1832535,"SOURCE":"Phone call","Jurisdiction":null,"Community":"Chicago"},"geometry":{"type":"Point","coordinates":[-87.72641833862804,41.89403540058499]}},{"type":"Feature","properties":{"OBJECTID":97,"CFNAME":"DuSable Adolescent Health Center","CFTYPE":"Hospital","CFSUBTYPE":"HealthCtr","ADDRESS":"4934 S Wabash Ave","GNISCODE":null,"SOURCE":"Website","Jurisdiction":null,"Community":"Chicago"},"geometry":{"type":"Point","coordinates":[-87.62513336287745,41.80519334852418]}},{"type":"Feature","properties":{"OBJECTID":98,"CFNAME":"Hayes Health Center","CFTYPE":"Hospital","CFSUBTYPE":"HealthCtr","ADDRESS":"4859 S Wabash Ave","GNISCODE":null,"SOURCE":"Website","Jurisdiction":null,"Community":"Chicago"},"geometry":{"type":"Point","coordinates":[-87.6238875978963,41.80613853590461]}}],"devices":[{"type":"Device","geometry":{"type":"Device","coordinates":["-87.65918305894269","41.89307359276422"]}},{"type":"Device","geometry":{"type":"Device","coordinates":["-87.65918305894269","41.87307359276422"]}},{"type":"Device","geometry":{"type":"Device","coordinates":["-87.75918305894269","41.89307359276422"]}}]}